{
    "type": "FeatureCollection",
    "name": "Velomagg",
    "features": [
        {
            "type": "Feature",
            "geometry": {
                "type": "Point",
                "coordinates": [3.881346, 43.605366]
            },
            "properties": {
                "name": "Rue Jules Ferry - Gare Saint-Roch",
                "id": "001"
            }
        },
        {
            "type": "Feature",
            "geometry": {
                "type": "Point",
                "coordinates": [3.878778, 43.608148]
            },
            "properties": {
                "name": "Comédie",
                "id": "002"
            }
        },
        {
            "type": "Feature",
            "geometry": {
                "type": "Point",
                "coordinates": [3.881293, 43.609478]
            },
            "properties": {
                "name": "Esplanade",
                "id": "003"
            }
        },
        {
            "type": "Feature",
            "geometry": {
                "type": "Point",
                "coordinates": [3.894866, 43.599088]
            },
            "properties": {
                "name": "Hôtel de Ville",
                "id": "004"
            }
        },
        {
            "type": "Feature",
            "geometry": {
                "type": "Point",
                "coordinates": [3.881600, 43.613989]
            },
            "properties": {
                "name": "Corum",
                "id": "005"
            }
        },
        {
            "type": "Feature",
            "geometry": {
                "type": "Point",
                "coordinates": [3.873375, 43.616768]
            },
            "properties": {
                "name": "Place Albert 1er - St Charles",
                "id": "006"
            }
        },
        {
            "type": "Feature",
            "geometry": {
                "type": "Point",
                "coordinates": [3.873345, 43.610989]
            },
            "properties": {
                "name": "Foch",
                "id": "007"
            }
        },
        {
            "type": "Feature",
            "geometry": {
                "type": "Point",
                "coordinates": [3.877208, 43.609935]
            },
            "properties": {
                "name": "Halles Castellane",
                "id": "008"
            }
        },
        {
            "type": "Feature",
            "geometry": {
                "type": "Point",
                "coordinates": [3.876931, 43.606081]
            },
            "properties": {
                "name": "Observatoire",
                "id": "009"
            }
        },
        {
            "type": "Feature",
            "geometry": {
                "type": "Point",
                "coordinates": [3.875796, 43.603038]
            },
            "properties": {
                "name": "Rondelet",
                "id": "010"
            }
        },
        {
            "type": "Feature",
            "geometry": {
                "type": "Point",
                "coordinates": [3.875796, 43.603038]
            },
            "properties": {
                "name": "Plan Cabanes",
                "id": "011"
            }
        },
        {
            "type": "Feature",
            "geometry": {
                "type": "Point",
                "coordinates": [3.868375, 43.622629]
            },
            "properties": {
                "name": "Boutonnet",
                "id": "012"
            }
        },
        {
            "type": "Feature",
            "geometry": {
                "type": "Point",
                "coordinates": [3.87998, 43.616742]
            },
            "properties": {
                "name": "Emile Combes",
                "id": "013"
            }
        },
        {
            "type": "Feature",
            "geometry": {
                "type": "Point",
                "coordinates": [3.884981, 43.616698]
            },
            "properties": {
                "name": "Beaux-Arts",
                "id": "014"
            }
        },
        {
            "type": "Feature",
            "geometry": {
                "type": "Point",
                "coordinates": [3.893844, 43.618692]
            },
            "properties": {
                "name": "Les Aubes",
                "id": "015"
            }
        },
        {
            "type": "Feature",
            "geometry": {
                "type": "Point",
                "coordinates": [3.890634, 43.607942]
            },
            "properties": {
                "name": "Antigone centre",
                "id": "016"
            }
        },
        {
            "type": "Feature",
            "geometry": {
                "type": "Point",
                "coordinates": [3.893140, 43.608218]
            },
            "properties": {
                "name": "Médiathèque Emile Zola",
                "id": "017"
            }
        },
        {
            "type": "Feature",
            "geometry": {
                "type": "Point",
                "coordinates": [3.886644, 43.607859]
            },
            "properties": {
                "name": "Nombre d'Or",
                "id": "018"
            }
        },
        {
            "type": "Feature",
            "geometry": {
                "type": "Point",
                "coordinates": [3.877648, 43.614642]
            },
            "properties": {
                "name": "Louis Blanc",
                "id": "019"
            }
        },
        {
            "type": "Feature",
            "geometry": {
                "type": "Point",
                "coordinates": [3.870693, 43.607106]
            },
            "properties": {
                "name": "Gambetta",
                "id": "020"
            }
        },
        {
            "type": "Feature",
            "geometry": {
                "type": "Point",
                "coordinates": [3.898510, 43.600320]
            },
            "properties": {
                "name": "Port Marianne",
                "id": "021"
            }
        },
        {
            "type": "Feature",
            "geometry": {
                "type": "Point",
                "coordinates": [3.872394, 43.603539]
            },
            "properties": {
                "name": "Clemenceau",
                "id": "022"
            }
        },
        {
            "type": "Feature",
            "geometry": {
                "type": "Point",
                "coordinates": [3.867157, 43.611991]
            },
            "properties": {
                "name": "Les Arceaux",
                "id": "023"
            }
        },
        {
            "type": "Feature",
            "geometry": {
                "type": "Point",
                "coordinates": [3.884373, 43.601143]
            },
            "properties": {
                "name": "Cité Mion",
                "id": "024"
            }
        },
        {
            "type": "Feature",
            "geometry": {
                "type": "Point",
                "coordinates": [3.875757, 43.599817]
            },
            "properties": {
                "name": "Nouveau Saint-Roch",
                "id": "025"
            }
        },
        {
            "type": "Feature",
            "geometry": {
                "type": "Point",
                "coordinates": [3.867884, 43.603553]
            },
            "properties": {
                "name": "Renouvier",
                "id": "026"
            }
        },
        {
            "type": "Feature",
            "geometry": {
                "type": "Point",
                "coordinates": [3.918979, 43.603727]
            },
            "properties": {
                "name": "Odysseum",
                "id": "027"
            }
        },
        {
            "type": "Feature",
            "geometry": {
                "type": "Point",
                "coordinates": [3.875065, 43.605021]
            },
            "properties": {
                "name": "Saint-Denis",
                "id": "028"
            }
        },
        {
            "type": "Feature",
            "geometry": {
                "type": "Point",
                "coordinates": [3.899263, 43.603424]
            },
            "properties": {
                "name": "Richter",
                "id": "029"
            }
        },
        {
            "type": "Feature",
            "geometry": {
                "type": "Point",
                "coordinates": [3.865971, 43.618762]
            },
            "properties": {
                "name": "Charles Flahault",
                "id": "030"
            }
        },
        {
            "type": "Feature",
            "geometry": {
                "type": "Point",
                "coordinates": [3.888659, 43.603767]
            },
            "properties": {
                "name": "Voltaire",
                "id": "031"
            }
        },
        {
            "type": "Feature",
            "geometry": {
                "type": "Point",
                "coordinates": [3.884611, 43.590480]
            },
            "properties": {
                "name": "Prés d'Arènes",
                "id": "032"
            }
        },
        {
            "type": "Feature",
            "geometry": {
                "type": "Point",
                "coordinates": [3.890616, 43.590757]
            },
            "properties": {
                "name": "Garcia Lorca",
                "id": "033"
            }
        },
        {
            "type": "Feature",
            "geometry": {
                "type": "Point",
                "coordinates": [3.868230, 43.634580]
            },
            "properties": {
                "name": "Vert Bois",
                "id": "034"
            }
        },
        {
            "type": "Feature",
            "geometry": {
                "type": "Point",
                "coordinates": [3.832861, 43.633679]
            },
            "properties": {
                "name": "Malbosc",
                "id": "035"
            }
        },
        {
            "type": "Feature",
            "geometry": {
                "type": "Point",
                "coordinates": [3.849128, 43.634242]
            },
            "properties": {
                "name": "Occitanie",
                "id": "036"
            }
        },
        {
            "type": "Feature",
            "geometry": {
                "type": "Point",
                "coordinates": [3.860697, 43.631018]
            },
            "properties": {
                "name": "Fac des Sciences",
                "id": "037"
            }
        },
        {
            "type": "Feature",
            "geometry": {
                "type": "Point",
                "coordinates": [3.870230, 43.630665]
            },
            "properties": {
                "name": "Fac de Lettres",
                "id": "038"
            }
        },
        {
            "type": "Feature",
            "geometry": {
                "type": "Point",
                "coordinates": [3.882492, 43.626163]
            },
            "properties": {
                "name": "Aiguelongue",
                "id": "039"
            }
        },
        {
            "type": "Feature",
            "geometry": {
                "type": "Point",
                "coordinates": [3.883831, 43.619701]
            },
            "properties": {
                "name": "Jeu de Mail des Abbés",
                "id": "040"
            }
        },
        {
            "type": "Feature",
            "geometry": {
                "type": "Point",
                "coordinates": [3.828199, 43.639119]
            },
            "properties": {
                "name": "Euromédecine",
                "id": "041"
            }
        },
        {
            "type": "Feature",
            "geometry": {
                "type": "Point",
                "coordinates": [3.873812, 43.619871]
            },
            "properties": {
                "name": "Marie Caizergues",
                "id": "042"
            }
        },
        {
            "type": "Feature",
            "geometry": {
                "type": "Point",
                "coordinates": [3.860031, 43.584211]
            },
            "properties": {
                "name": "Sabines",
                "id": "043"
            }
        },
        {
            "type": "Feature",
            "geometry": {
                "type": "Point",
                "coordinates": [3.832624, 43.614670]
            },
            "properties": {
                "name": "Celleneuve",
                "id": "044"
            }
        },
        {
            "type": "Feature",
            "geometry": {
                "type": "Point",
                "coordinates": [3.911576, 43.605850]
            },
            "properties": {
                "name": "Jardin de la Lironde",
                "id": "045"
            }
        },
        {
            "type": "Feature",
            "geometry": {
                "type": "Point",
                "coordinates": [3.855603, 43.621983]
            },
            "properties": {
                "name": "Père Soulas",
                "id": "046"
            }
        },
        {
            "type": "Feature",
            "geometry": {
                "type": "Point",
                "coordinates": [3.855075, 43.616812]
            },
            "properties": {
                "name": "Place Viala",
                "id": "047"
            }
        },
        {
            "type": "Feature",
            "geometry": {
                "type": "Point",
                "coordinates": [3.834770, 43.621682]
            },
            "properties": {
                "name": "Hôtel du Département",
                "id": "048"
            }
        },
        {
            "type": "Feature",
            "geometry": {
                "type": "Point",
                "coordinates": [3.839466, 43.615155]
            },
            "properties": {
                "name": "Tonnelles",
                "id": "049"
            }
        },
        {
            "type": "Feature",
            "geometry": {
                "type": "Point",
                "coordinates": [3.879362, 43.603889]
            },
            "properties": {
                "name": "Parvis Jules Ferry - Gare Saint-Roch",
                "id": "050"
            }
        },
        {
            "type": "Feature",
            "geometry": {
                "type": "Point",
                "coordinates": [3.882393, 43.606036]
            },
            "properties": {
                "name": "Pont de Lattes - Gare Saint-Roch",
                "id": "051"
            }
        },
        {
            "type": "Feature",
            "geometry": {
                "type": "Point",
                "coordinates": [3.880916, 43.604319]
            },
            "properties": {
                "name": "Deux Ponts - Gare Saint-Roch",
                "id": "053"
            }
        },
        {
            "type": "Feature",
            "geometry": {
                "type": "Point",
                "coordinates": [3.853421, 43.588239]
            },
            "properties": {
                "name": "Providence - Ovalie",
                "id": "054"
            }
        },
        {
            "type": "Feature",
            "geometry": {
                "type": "Point",
                "coordinates": [3.963412, 43.558351]
            },
            "properties": {
                "name": "Pérols Etang de l'Or",
                "id": "055"
            }
        },
        {
            "type": "Feature",
            "geometry": {
                "type": "Point",
                "coordinates": [3.873218, 43.614005]
            },
            "properties": {
                "name": "Albert 1er - Cathédrale",
                "id": "056"
            }
        },
        {
            "type": "Feature",
            "geometry": {
                "type": "Point",
                "coordinates": [3.872752, 43.608996]
            },
            "properties": {
                "name": "Saint-Guilhem - Courreau",
                "id": "057"
            }
        },
        {
            "type": "Feature",
            "geometry": {
                "type": "Point",
                "coordinates": [3.923500, 43.595620]
            },
            "properties": {
                "name": "Sud De France",
                "id": "059"
            }
        }


    ]
}
